[
  {
    "id": "biblioteca",
    "name": "Biblioteca Central",
    "description": "El corazón intelectual de la UTM. Un espacio dedicado al estudio, la investigación y el acceso a una vasta colección de recursos bibliográficos y digitales en un ambiente tranquilo.",
    "imageUrls": [
      "assets/images/biblioteca_1.jpg",
      "assets/images/biblioteca_2.jpg",
      "assets/images/biblioteca_3.jpg"
    ],
    "latitude": 17.828098405603654,
    "longitude": -97.80282653414652,
    "schedule": "8:00 AM — 11:00 PM",
    "gameRoute": "/sopa_letras"
  },
  {
    "id": "canchas",
    "name": "Canchas Deportivas",
    "description": "Espacio deportivo abierto a toda la comunidad universitaria para la práctica de fútbol, ejercicio al aire libre y torneos internos. Un lugar ideal para liberar energía entre clases.",
    "imageUrls": [
      "assets/images/canchas_1.jpg",
      "assets/images/canchas_2.jpg",
      "assets/images/canchas_3.jpg",
      "assets/images/canchas_4.jpg"
    ],
    "latitude": 17.8261667,
    "longitude": -97.80433333333333,
    "schedule": "Acceso 24 Horas",
    "gameRoute": "/futbol"
  },
  {
    "id": "aulas",
    "name": "Aulas",
    "description": "Espacio académico para el desarrollo de clases y actividades educativas.",
    "imageUrls": [
      "assets/images/aulas_1.jpg",
      "assets/images/aulas_2.jpg",
      "assets/images/aulas_3.jpg"
    ],
    "latitude": 17.8259444,
    "longitude": -97.8025,
    "schedule": "8:00 AM — 7:00 PM",
    "gameRoute": "/atrapa_objetos"
  },
  {
    "id": "servicios_escolares",
    "name": "Servicios Escolares",
    "description": "Espacio académico para el desarrollo de actividades relacionadas con la gestión escolar",
    "imageUrls": [
      "assets/images/servicios_escolares_1.jpg",
      "assets/images/servicios_escolares_2.jpg",
      "assets/images/servicios_escolares_3.jpg"
    ],
    "latitude": 17.827133581565285,
    "longitude": -97.80445085156545,
    "schedule": "8:00 AM — 7:00 PM",
    "gameRoute": "/trivia_utm"
  },
  {
    "id": "auditorio",
    "name": "Auditorio",
    "description": "Espacio donde diversas actividades académicas y culturales se llevan a cabo.",
    "imageUrls": [
      "assets/images/auditorio_1.jpg",
      "assets/images/auditorio_2.jpg",
      "assets/images/auditorio_3.jpg"
    ],
    "latitude": 17.827350622254993,
    "longitude": -97.80496047127883,
    "schedule": "8:00 AM — 7:00 PM",
    "gameRoute": "/trivia_utm"
  },
  {
    "id": "paraninfo",
    "name": "Paraninfo",
    "description": "Espacio donde diversas actividades académicas y culturales se llevan a cabo.",
    "imageUrls": [
      "assets/images/paraninfo_1.jpg",
      "assets/images/paraninfo_2.jpg"
    ],
    "latitude": 17.82711321847246,
    "longitude": -97.80367498014547,
    "schedule": "8:00 AM — 7:00 PM",
    "gameRoute": "/trivia_utm"
  },
  {
    "id": "Gimnasio",
    "name": "Gimnasio",
    "description": "Espacio para fomentar la salud de los alumnos",
    "imageUrls": [
      "assets/images/gimnasio_1.jpg",
      "assets/images/gimnasio_2.jpg"
    ],
    "latitude": 17.835641045414135,
    "longitude": -97.80215825124438,
    "schedule": "6:00 AM — 8:00 AM & 6:00 PM — 10:00 PM",
    "gameRoute": "/trivia_utm"
  },
  {
    "id": "Usalab",
    "name": "Usalab",
    "description": "Espacio para fomentar la salud de los alumnos",
    "imageUrls": [
      "assets/images/usalab_1.jpg",
      "assets/images/usalab_2.jpg"
    ],
    "latitude": 17.827971277894644,
    "longitude": -97.80474478237339,
    "schedule": "9:00 AM - 2:00 PM & 4:00 PM - 7 PM",
    "gameRoute": "/trivia_utm"
  },
  {
    "id": "purificadora",
    "name": "Purificadora",
    "description": "Espacio para obtener agua purificada sin costo alguno",
    "imageUrls": [
      "assets/images/purificadora_1.jpg",
      "assets/images/purificadora_2.jpg",
      "assets/images/purificadora_3.jpg"
    ],
    "latitude": 17.826356202310265,
    "longitude": -97.80277911330376,
    "schedule": "8:00 AM - 1:30 PM & 3:30 PM - 6 PM",
    "gameRoute": "/trivia_utm"
  },
  {
    "id":"fuente",
    "name":"Fuente",
    "description":"Fuente de agua",
    "imageUrls":[
      "assets/images/fuente_1.jpg",
      "assets/images/fuente_2.jpg"
    ],
    "latitude": 17.826836246982392,
    "longitude": -97.8034174790403,
    "schedule": "Acceso 24 Horas",
    "gameRoute": "/trivia_utm"
  }
]